Title,Latitude,Longitude
Interhelp,-33.95980772,151.1534543
OLIO app,-33.87585977,151.2065695
Foodbank Victoria,-33.85389592,150.9853916
Interhelp,-37.98990983,145.2149614
One Tummy,-38.44948514,145.2372508
RUOK,-38.19753016,146.5375269
SPILL YOUR TEA,-37.78553967,144.8318105
YSHY Short for your Sexual Health Yard,-38.45488082,145.238317
Titans,-27.38100707,153.012875
Delta Dot Edu,-37.91601397,145.0749441
Clean water and Sanitation,-32.03557597,115.7882208
Creative Protocol,-32.10634723,115.9381583
Stepping Zone,-33.76178182,150.8999578
MCISS (Monash Community of International Students in Science),-37.92852538,145.1168876
Brewcyclers,-33.88435718,150.9280474
