Title,Latitude,Longitude
Interhelp,151.1534543,-33.95980772
OLIO app,151.2065695,-33.87585977
Foodbank Victoria,150.9853916,-33.85389592
Interhelp,145.2149614,-37.98990983
One Tummy,145.2372508,-38.44948514
RUOK,146.5375269,-38.19753016
SPILL YOUR TEA,144.8318105,-37.78553967
YSHY Short for your Sexual Health Yard,145.238317,-38.45488082
Titans,153.012875,-27.38100707
Delta Dot Edu,145.0749441,-37.91601397
Clean water and Sanitation,115.7882208,-32.03557597
Creative Protocol,115.9381583,-32.10634723
Stepping Zone,150.8999578,-33.76178182
MCISS (Monash Community of International Students in Science),145.1168876,-37.92852538
Brewcyclers,150.9280474,-33.88435718
